{"@id":"https://w3id.org/Thesis","type":"FeatureCollection","@context":"https://w3id.org/locolligo/contexts/linkedplaces.jsonld","features":[{"@id":"https://w3id.org/Thesis/f8acc7b6-c660-4c8e-8315-f2480d26a65d","type":"Feature","properties":{"title":"Dearborn Park"},"geometry":{"type":"Point","coordinates":[-87.629037,41.867408]}},{"@id":"https://w3id.org/Thesis/4c3489fd-b9f2-4a41-999f-e26777ddce55","type":"Feature","properties":{"title":"100 Forest Place"},"geometry":{"type":"Point","coordinates":[-87.800158,41.887861]}},{"@id":"https://w3id.org/Thesis/f2475578-3bcd-42ad-b0a0-692de94cb7c7","type":"Feature","properties":{"title":"Lakeshore East"},"geometry":{"type":"Point","coordinates":[-87.61772,41.885914]}},{"@id":"https://w3id.org/Thesis/7af1bb27-37c8-4e48-8995-28e30501cb2c","type":"Feature","properties":{"title":"Gemeinde-Wien-Type"},"geometry":{"type":"Point","coordinates":[16.374934,48.214332]}},{"@id":"https://w3id.org/Thesis/3acc3f69-72bf-42b0-ae4e-9eea3413012d","type":"Feature","properties":{"title":"Habitat 67"},"geometry":{"type":"Point","coordinates":[-73.544186,45.499924]}}],"indexing":{"@type":"Dataset","name":"Thesis","description":"","license":"https://creativecommons.org/licenses/by/4.0/","identifier":"https://w3id.org/Thesis","temporalCoverage":"1066/2022","spatialCoverage":{"@type":"GeoShape","box":"0.580101 0.00149 60.355 9.78667","geo":{"@type":"GeoShape","box":"41.867408 16.374934 48.214332 87.800158"}}}}